[
    {
      "place": "257분식",
      "Latitude": 37.5405279,
      "Longitude": 126.9691008,
      "kind": "분식",
      "address": "서울 용산구 원효로 257",
      "number": ""
    },
    {
      "place": "가문의 우동 숙대점",
      "Latitude": 37.5453895,
      "Longitude": 126.9653493,
      "kind": "일식",
      "address": "서울 용산구 청파로47다길 5-1 1층",
      "number": ""
    },
    {
      "place": "가시버시",
      "Latitude": 37.5492791,
      "Longitude": 126.9690301,
      "kind": "간식",
      "address": "서울 용산구 청파로71길 13",
      "number": "02-713-8448"
    },
    {
      "place": "가정식떡갈비집",
      "Latitude": 37.5422423,
      "Longitude": 126.9625842,
      "kind": "한식",
      "address": "서울 용산구 효창원로 160 (우)04312",
      "number": "02-3274-1680"
    },
    {
      "place": "감래",
      "Latitude": 37.5444741,
      "Longitude": 126.9677225,
      "kind": "술집",
      "address": "서울 용산구 청파로47길 47-3 1층",
      "number": "070-8656-4011"
    },
    {
      "place": "갑돌네",
      "Latitude": 37.5495257,
      "Longitude": 126.9696254,
      "kind": "한식",
      "address": "서울 용산구 청파로 335-1",
      "number": "02-392-6343"
    },
    {
      "place": "강남왕만두 호창점",
      "Latitude": 37.5409903,
      "Longitude": 126.9622236,
      "kind": "분식",
      "address": "서울 용산구 효창원로 146 (우)04317",
      "number": "010-7126-3505"
    },
    {
      "place": "강남화로숯불갈비",
      "Latitude": 37.5448902,
      "Longitude": 126.9672913,
      "kind": "고기",
      "address": "서울 용산구 청파로47길 56",
      "number": "02-713-9708"
    },
    {
      "place": "강원정 삼계탕",
      "Latitude": 37.5403959,
      "Longitude": 126.9678081,
      "kind": "한식",
      "address": "서울 용산구 원효로89길 13-10",
      "number": "02-719-9978"
    },
    {
      "place": "개성할머니보쌈족발",
      "Latitude": 37.5494751,
      "Longitude": 126.9694993,
      "kind": "한식",
      "address": "서울 용산구 청파로 335-5",
      "number": ""
    },
    {
      "place": "갯마을해물칼국수",
      "Latitude": 37.5443722,
      "Longitude": 126.9687412,
      "kind": "한식",
      "address": "서울 용산구 청파로45길 33",
      "number": "02-719-6996"
    },
    {
      "place": "경성양꼬치구이",
      "Latitude": 37.5436397,
      "Longitude": 126.9705008,
      "kind": "고기",
      "address": "서울 용산구 청파로 269-1",
      "number": "02-706-6887"
    },
    {
      "place": "경수산스시 숙대점",
      "Latitude": 37.5450132,
      "Longitude": 126.9672375,
      "kind": "일식",
      "address": "서울 용산구 청파로49길 56 103호",
      "number": ""
    },
    {
      "place": "계림원 남영숙대점",
      "Latitude": 37.5444146,
      "Longitude": 126.9714294,
      "kind": "치킨",
      "address": "서울 용산구 한강대로87길 8",
      "number": "02-704-4747"
    },
    {
      "place": "고래밥",
      "Latitude": 37.5458451,
      "Longitude": 126.9669601,
      "kind": "술집",
      "address": "서울 용산구 청파로47나길 19",
      "number": ""
    },
    {
      "place": "고향집",
      "Latitude": 37.5445254,
      "Longitude": 126.9576628,
      "kind": "한식",
      "address": "서울 마포구 임정로 53 (우)04190",
      "number": "02-714-8645"
    },
    {
      "place": "공원기사식당",
      "Latitude": 37.5443455,
      "Longitude": 126.9575975,
      "kind": "한식",
      "address": "서울 마포구 임정로 51 (우)04190",
      "number": "02-714-4937"
    },
    {
      "place": "교촌치킨 숙대점",
      "Latitude": 37.5449111,
      "Longitude": 126.9696855,
      "kind": "치킨",
      "address": "서울 용산구 청파로47길 14 1, 2층",
      "number": "02-707-2577"
    },
    {
      "place": "교촌치킨 신공덕점",
      "Latitude": 37.5422754,
      "Longitude": 126.9539814,
      "kind": "치킨",
      "address": "서울 마포구 만리재로 74 신공덕 래미안상가 1동 109호 (우)04187",
      "number": "02-703-9919"
    },
    {
      "place": "구위브런치바",
      "Latitude": 37.5400768,
      "Longitude": 126.9622419,
      "kind": "양식",
      "address": "서울 용산구 효창원로64길 6 일진빌딩 1층 (우)04317",
      "number": "010-8260-9092"
    },
    {
      "place": "구이포차",
      "Latitude": 37.5495257,
      "Longitude": 126.9696254,
      "kind": "술집",
      "address": "서울 용산구 청파로 335-1",
      "number": "0507-1354-7240"
    },
    {
      "place": "국빈",
      "Latitude": 37.5471507,
      "Longitude": 126.9601759,
      "kind": "중식",
      "address": "서울 마포구 효창목4길 22-10 (우)04186",
      "number": "02-706-7837"
    },
    {
      "place": "국수나무 숙명여대점",
      "Latitude": 37.5445926,
      "Longitude": 126.9686963,
      "kind": "한식",
      "address": "서울 용산구 청파로45길 34",
      "number": "02-717-3409"
    },
    {
      "place": "굴다리국수",
      "Latitude": 37.544059,
      "Longitude": 126.9709522,
      "kind": "분식",
      "address": "서울 용산구 한강대로87길 19 1층",
      "number": "02-716-3738"
    },
    {
      "place": "굴다리소곱창",
      "Latitude": 37.5436397,
      "Longitude": 126.9705008,
      "kind": "고기",
      "address": "서울 용산구 청파로 269-1",
      "number": ""
    },
    {
      "place": "굽네치킨 공덕점",
      "Latitude": 37.5464743,
      "Longitude": 126.9581687,
      "kind": "치킨",
      "address": "서울 마포구 만리재로 74 삼성레미안 상가1동 111호 (우)04187",
      "number": "02-716-9292"
    },
    {
      "place": "그릭그릭",
      "Latitude": 37.5443248,
      "Longitude": 126.9701281,
      "kind": "간식",
      "address": "서울 용산구 청파로45길 8-1 1층",
      "number": ""
    },
    {
      "place": "그린파스타 ",
      "Latitude": 37.544202,
      "Longitude": 126.9697869,
      "kind": "양식",
      "address": "서울 용산구 청파로45길 13",
      "number": "02-701-3237"
    },
    {
      "place": "금강산",
      "Latitude": 37.5465701,
      "Longitude": 126.9700157,
      "kind": "한식",
      "address": "서울 용산구 청파로 303",
      "number": "02-713-6650"
    },
    {
      "place": "긴자료코",
      "Latitude": 37.5444218,
      "Longitude": 126.9682358,
      "kind": "일식",
      "address": "서울 용산구 청파로43가길 33 1층",
      "number": "02-711-0476"
    },
    {
      "place": "길목식당",
      "Latitude": 37.5443598,
      "Longitude": 126.9681518,
      "kind": "한식",
      "address": "서울 용산구 청파로47길 37-5",
      "number": "02-719-1528"
    },
    {
      "place": "김가네뼈다귀해장국",
      "Latitude": 37.5414222,
      "Longitude": 126.9615477,
      "kind": "한식",
      "address": "서울 용산구 효창원로69길 5 1층 (우)04318",
      "number": "02-701-8232"
    },
    {
      "place": "김밥2000",
      "Latitude": 37.5433942,
      "Longitude": 126.9705551,
      "kind": "분식",
      "address": "서울 용산구 청파로 267",
      "number": ""
    },
    {
      "place": "까치네",
      "Latitude": 37.5444325,
      "Longitude": 126.9696615,
      "kind": "한식",
      "address": "서울 용산구 청파로45길 18",
      "number": "02-715-0806"
    },
    {
      "place": "까치한식분식",
      "Latitude": 37.541191,
      "Longitude": 126.9699177,
      "kind": "분식",
      "address": "서울 용산구 원효로 267-1",
      "number": "02-702-5840"
    },
    {
      "place": "꼬꼬치킨",
      "Latitude": 37.5509168,
      "Longitude": 126.9635301,
      "kind": "치킨",
      "address": "서울 용산구 효창원로 267 (우)04305",
      "number": "02-706-9797"
    },
    {
      "place": "꼬미닭",
      "Latitude": 37.5477827,
      "Longitude": 126.9599182,
      "kind": "치킨",
      "address": "서울 마포구 효창목길 18 (우)04186",
      "number": "02-713-7548"
    },
    {
      "place": "꽃보다크레페",
      "Latitude": 37.5435506,
      "Longitude": 126.9705111,
      "kind": "간식",
      "address": "서울 용산구 청파로 269 1층",
      "number": ""
    },
    {
      "place": "꽃술",
      "Latitude": 37.5392578,
      "Longitude": 126.9652292,
      "kind": "술집",
      "address": "서울 용산구 원효로77길 33 (우)04316",
      "number": "02-719-7703"
    },
    {
      "place": "꿀마미 효창동점",
      "Latitude": 37.5409903,
      "Longitude": 126.9622236,
      "kind": "분식",
      "address": "서울 용산구 효창원로 146 (우)04317",
      "number": "02-713-0353"
    },
    {
      "place": "나나니니",
      "Latitude": 37.5444218,
      "Longitude": 126.9682358,
      "kind": "술집",
      "address": "서울 용산구 청파로43가길 33 지하1층",
      "number": "02-6326-3751"
    },
    {
      "place": "나래한식분식",
      "Latitude": 37.5415122,
      "Longitude": 126.9701758,
      "kind": "분식",
      "address": "서울 용산구 원효로97길 3",
      "number": ""
    },
    {
      "place": "나무",
      "Latitude": 37.5448221,
      "Longitude": 126.9684702,
      "kind": "술집",
      "address": "서울 용산구 청파로47길 34",
      "number": ""
    },
    {
      "place": "나바호",
      "Latitude": 37.5438665,
      "Longitude": 126.9719235,
      "kind": "술집",
      "address": "서울 용산구 한강대로 287",
      "number": "02-714-4679"
    },
    {
      "place": "나폴리치킨",
      "Latitude": 37.5443466,
      "Longitude": 126.9689011,
      "kind": "양식",
      "address": "서울 용산구 청파로45길 29 2층",
      "number": "02-716-3428"
    },
    {
      "place": "남선반점",
      "Latitude": 37.5471418,
      "Longitude": 126.9592741,
      "kind": "중식",
      "address": "서울 마포구 효창목4길 4 (우)04186",
      "number": "02-707-1566"
    },
    {
      "place": "남영포차",
      "Latitude": 37.5444146,
      "Longitude": 126.9714294,
      "kind": "술집",
      "address": "서울 용산구 한강대로87길 12 1층",
      "number": ""
    },
    {
      "place": "내가조선의닭이다",
      "Latitude": 37.544059,
      "Longitude": 126.9709522,
      "kind": "치킨",
      "address": "서울 용산구 한강대로87길 19 1층",
      "number": "02-716-3738"
    },
    {
      "place": "내가찜한닭 숙대점",
      "Latitude": 37.5443967,
      "Longitude": 126.9697956,
      "kind": "한식",
      "address": "서울 용산구 청파로45길 14-1",
      "number": "02-719-1231"
    },
    {
      "place": "네코노스시 숙대점",
      "Latitude": 37.5451962,
      "Longitude": 126.967046,
      "kind": "일식",
      "address": "서울 용산구 청파로47나길 8 1층",
      "number": "02-712-2165"
    },
    {
      "place": "노가리슈퍼",
      "Latitude": 37.5440698,
      "Longitude": 126.9714647,
      "kind": "술집",
      "address": "서울 용산구 한강대로87길 9",
      "number": ""
    },
    {
      "place": "노랑통닭 숙대점",
      "Latitude": 37.5444937,
      "Longitude": 126.9708998,
      "kind": "치킨",
      "address": "서울 용산구 청파로 280",
      "number": "02-701-6969"
    },
    {
      "place": "노모 숙대점",
      "Latitude": 37.5442587,
      "Longitude": 126.9704017,
      "kind": "술집",
      "address": "서울 용산구 청파로45길 4",
      "number": "02-719-3330"
    },
    {
      "place": "뉴팀스치킨호프",
      "Latitude": 37.5444125,
      "Longitude": 126.9576361,
      "kind": "술집",
      "address": "서울 마포구 임정로 51-1 (우)04190",
      "number": "02-717-3065"
    },
    {
      "place": "닌자초밥 숙대직영점",
      "Latitude": 37.5444213,
      "Longitude": 126.9697251,
      "kind": "일식",
      "address": "서울 용산구 청파로45길 16",
      "number": "02-2252-9285"
    },
    {
      "place": "다미만두 숙대점",
      "Latitude": 37.5451096,
      "Longitude": 126.9673369,
      "kind": "간식",
      "address": "서울 용산구 청파로49길 54",
      "number": ""
    },
    {
      "place": "다코기 숙대점",
      "Latitude": 37.5445951,
      "Longitude": 126.9688796,
      "kind": "치킨",
      "address": "서울 용산구 청파로45길 32",
      "number": "02-718-7888"
    },
    {
      "place": "달볶이 숙명여대점",
      "Latitude": 37.545155,
      "Longitude": 126.965632,
      "kind": "분식",
      "address": "서울 용산구 청파로47길 88",
      "number": "02-715-6137"
    },
    {
      "place": "달빛한스푼",
      "Latitude": 37.5449218,
      "Longitude": 126.9683251,
      "kind": "한식",
      "address": "서울 용산구 청파로47길 34-2",
      "number": ""
    },
    {
      "place": "달인수제한방족발",
      "Latitude": 37.5423767,
      "Longitude": 126.9705272,
      "kind": "고기",
      "address": "서울 용산구 청파로 255 1층",
      "number": "02-707-3989"
    },
    {
      "place": "대관령목장",
      "Latitude": 37.5439644,
      "Longitude": 126.9717796,
      "kind": "고기",
      "address": "서울 용산구 한강대로 287-1",
      "number": "02-714-4565"
    },
    {
      "place": "대구막창",
      "Latitude": 37.5484223,
      "Longitude": 126.9702845,
      "kind": "고기",
      "address": "서울 용산구 청파로 320-3",
      "number": "02-718-8490"
    },
    {
      "place": "대포항조개구이",
      "Latitude": 37.543171,
      "Longitude": 126.9717192,
      "kind": "술집",
      "address": "서울 용산구 한강대로81길 12",
      "number": ""
    },
    {
      "place": "더나린",
      "Latitude": 37.5451206,
      "Longitude": 126.9699395,
      "kind": "술집",
      "address": "서울 용산구 청파로49길 7 1층",
      "number": "070-8835-5714"
    },
    {
      "place": "더철판삼겹 숙대점",
      "Latitude": 37.5448221,
      "Longitude": 126.9684702,
      "kind": "고기",
      "address": "서울 용산구 청파로47길 34",
      "number": "02-715-3392"
    },
    {
      "place": "더함",
      "Latitude": 37.5449039,
      "Longitude": 126.9676204,
      "kind": "한식",
      "address": "서울 용산구 청파로47길 52 명신플라자 2층",
      "number": "02-707-3692"
    },
    {
      "place": "덕신식당",
      "Latitude": 37.5403144,
      "Longitude": 126.9676667,
      "kind": "한식",
      "address": "서울 용산구 원효로89길 13-14",
      "number": ""
    },
    {
      "place": "덮다 서울역점",
      "Latitude": 37.5508242,
      "Longitude": 126.9635642,
      "kind": "한식",
      "address": "서울 용산구 효창원로 265-4 (우)04305",
      "number": "02-714-8186"
    },
    {
      "place": "도마에",
      "Latitude": 37.5441719,
      "Longitude": 126.970051,
      "kind": "일식",
      "address": "서울 용산구 청파로45길 9 1층",
      "number": "02-712-6688"
    },
    {
      "place": "돈치앤",
      "Latitude": 37.5411417,
      "Longitude": 126.9623381,
      "kind": "일식",
      "address": "서울 용산구 효창원로66길 7-8 (우)04317",
      "number": "02-3141-0306"
    },
    {
      "place": "동궁찜닭 마포공덕점",
      "Latitude": 37.5478853,
      "Longitude": 126.9607168,
      "kind": "한식",
      "address": "서울 마포구 효창목길 23 (우)04185",
      "number": "02-6338-6007"
    },
    {
      "place": "동부숯불갈비",
      "Latitude": 37.5477645,
      "Longitude": 126.9594895,
      "kind": "고기",
      "address": "서울 마포구 효창목길 15 (우)04185",
      "number": "02-716-0171"
    },
    {
      "place": "동아냉면 숙대2호점",
      "Latitude": 37.5444495,
      "Longitude": 126.9695504,
      "kind": "한식",
      "address": "서울 용산구 청파로45길 20",
      "number": "02-703-2796"
    },
    {
      "place": "두꺼비순대",
      "Latitude": 37.5405279,
      "Longitude": 126.9691008,
      "kind": "한식",
      "address": "서울 용산구 원효로 257",
      "number": "02-719-5868"
    },
    {
      "place": "두끼떡복이 숙대점",
      "Latitude": 37.5447747,
      "Longitude": 126.9679933,
      "kind": "분식",
      "address": "서울 용산구 청파로47길 42-1 2층",
      "number": "02-717-2771"
    },
    {
      "place": "두찜 마포공덕점",
      "Latitude": 37.5474255,
      "Longitude": 126.9594671,
      "kind": "한식",
      "address": "서울 마포구 효창목길 12 1층 (우)04186",
      "number": "02-702-1118"
    },
    {
      "place": "디어파인",
      "Latitude": 37.5448008,
      "Longitude": 126.9664415,
      "kind": "간식",
      "address": "서울 용산구 청파로47길 71",
      "number": ""
    },
    {
      "place": "딜리키친",
      "Latitude": 37.5475176,
      "Longitude": 126.9595835,
      "kind": "한식",
      "address": "서울 마포구 효창목길 14 (우)04186",
      "number": "02-715-0891"
    },
    {
      "place": "땡스그린",
      "Latitude": 37.5441939,
      "Longitude": 126.9698923,
      "kind": "간식",
      "address": "서울 용산구 청파로45길 11 2층",
      "number": "02-6369-2333"
    },
    {
      "place": "또오기찌개마을",
      "Latitude": 37.5403855,
      "Longitude": 126.9684782,
      "kind": "한식",
      "address": "서울 용산구 원효로89길 3-2",
      "number": "02-715-9288"
    },
    {
      "place": "또와또",
      "Latitude": 37.5446659,
      "Longitude": 126.9670873,
      "kind": "분식",
      "address": "서울 용산구 청파로47길 59 지하1층",
      "number": "02-716-6930"
    },
    {
      "place": "뚜레쥬르 숙대입구점",
      "Latitude": 37.5450541,
      "Longitude": 126.9702686,
      "kind": "간식",
      "address": "서울 용산구 청파로 285",
      "number": "02-707-3492"
    },
    {
      "place": "뜸들이다",
      "Latitude": 37.5445375,
      "Longitude": 126.9675519,
      "kind": "한식",
      "address": "서울 용산구 청파로47길 49 1층",
      "number": ""
    },
    {
      "place": "띵똥와플 숙명여대점",
      "Latitude": 37.5451027,
      "Longitude": 126.9658285,
      "kind": "간식",
      "address": "서울 용산구 청파로47길 84 1층",
      "number": "02-711-8777"
    },
    {
      "place": "라리에또 숙대점",
      "Latitude": 37.5455365,
      "Longitude": 126.9667991,
      "kind": "양식",
      "address": "서울 용산구 청파로47나길 13 2층",
      "number": "02-715-9241"
    },
    {
      "place": "로또호프",
      "Latitude": 37.547886,
      "Longitude": 126.9589627,
      "kind": "술집",
      "address": "서울 마포구 만리재로 84 (우)04185",
      "number": ""
    },
    {
      "place": "롯데리아",
      "Latitude": 37.5433153,
      "Longitude": 126.9719152,
      "kind": "양식",
      "address": "서울 용산구 한강대로 283 국제영상빌딩 1층",
      "number": "02-718-9861"
    },
    {
      "place": "리또리또",
      "Latitude": 37.5447033,
      "Longitude": 126.9669317,
      "kind": "아시아",
      "address": "서울 용산구 청파로47가길 3 2층",
      "number": "02-707-1906"
    },
    {
      "place": "마시앤바시",
      "Latitude": 37.5444883,
      "Longitude": 126.9681048,
      "kind": "양식",
      "address": "서울 용산구 청파로47길 39 2층",
      "number": ""
    },
    {
      "place": "마카나이",
      "Latitude": 37.5441939,
      "Longitude": 126.9698923,
      "kind": "일식",
      "address": "서울 용산구 청파로45길 11 1층",
      "number": "02-711-2016"
    },
    {
      "place": "마포갈비",
      "Latitude": 37.5450112,
      "Longitude": 126.9699942,
      "kind": "고기",
      "address": "서울 용산구 청파로47길 8-5",
      "number": "02-714-8062"
    },
    {
      "place": "마포구이마당 숙대직영점",
      "Latitude": 37.5451236,
      "Longitude": 126.9670832,
      "kind": "고기",
      "address": "서울 용산구 청파로47나길 6 1층",
      "number": "02-713-6515"
    },
    {
      "place": "만나칼국수",
      "Latitude": 37.5453758,
      "Longitude": 126.9693475,
      "kind": "한식",
      "address": "서울 용산구 청파로49길 18",
      "number": "02-6956-5223"
    },
    {
      "place": "만득이곱창",
      "Latitude": 37.5498785,
      "Longitude": 126.963403,
      "kind": "고기",
      "address": "서울 마포구 효창원로 253-2 1층 (우)04183",
      "number": "02-6326-8259"
    },
    {
      "place": "만리골",
      "Latitude": 37.5509843,
      "Longitude": 126.9637328,
      "kind": "한식",
      "address": "서울 용산구 효창원로 268 (우)04305",
      "number": "02-704-7574"
    },
    {
      "place": "만리기사식당",
      "Latitude": 37.5499126,
      "Longitude": 126.9607215,
      "kind": "한식",
      "address": "서울 마포구 만리재로 112 (우)04184",
      "number": "02-711-7661"
    },
    {
      "place": "만리수산",
      "Latitude": 37.5508242,
      "Longitude": 126.9635642,
      "kind": "한식",
      "address": "서울 용산구 효창원로 265-4 (우)04305",
      "number": "02-711-8883"
    },
    {
      "place": "만리한식부페",
      "Latitude": 37.5513263,
      "Longitude": 126.963478,
      "kind": "한식",
      "address": "서울 용산구 효창원로 270 (우)04305",
      "number": ""
    },
    {
      "place": "만천재",
      "Latitude": 37.5460993,
      "Longitude": 126.970063,
      "kind": "간식",
      "address": "서울 용산구 청파로 297 1층",
      "number": ""
    },
    {
      "place": "말죽거리꽈배기",
      "Latitude": 37.5446122,
      "Longitude": 126.9683679,
      "kind": "간식",
      "address": "서울 용산구 청파로47길 37",
      "number": "02-712-9539"
    },
    {
      "place": "맘스터치",
      "Latitude": 37.5448664,
      "Longitude": 126.9660129,
      "kind": "양식",
      "address": "서울 용산구 청파로47길 79 2층",
      "number": "02-719-0812"
    },
    {
      "place": "맛나분식",
      "Latitude": 37.5417982,
      "Longitude": 126.9692893,
      "kind": "분식",
      "address": "서울 용산구 원효로97길 21",
      "number": ""
    },
    {
      "place": "먹고갈까싸갈까",
      "Latitude": 37.5440255,
      "Longitude": 126.9573767,
      "kind": "분식",
      "address": "서울 마포구 임정로 47 (우)04190",
      "number": "02-703-6090"
    },
    {
      "place": "먹꾸바바비큐치킨",
      "Latitude": 37.5448548,
      "Longitude": 126.9692166,
      "kind": "치킨",
      "address": "서울 용산구 청파로47길 22",
      "number": "02-3273-7260"
    },
    {
      "place": "멕시카나치킨 숙대점",
      "Latitude": 37.5452106,
      "Longitude": 126.9664257,
      "kind": "치킨",
      "address": "서울 용산구 청파로47길 66-7 다와이주택 1층 101호",
      "number": "02-706-1010"
    },
    {
      "place": "멕시칸치킨 공덕점",
      "Latitude": 37.5488683,
      "Longitude": 126.9635878,
      "kind": "치킨",
      "address": "서울 마포구 효창원로 244 (우)04184",
      "number": "02-704-4962"
    },
    {
      "place": "멕시칸치킨 효창중앙점",
      "Latitude": 37.5414222,
      "Longitude": 126.9615477,
      "kind": "치킨",
      "address": "서울 용산구 효창원로69길 5 (우)04318",
      "number": "02-3272-4774"
    },
    {
      "place": "명가양꼬치",
      "Latitude": 37.5415977,
      "Longitude": 126.9698533,
      "kind": "고기",
      "address": "서울 용산구 원효로97길 9-1",
      "number": "02-719-6618"
    },
    {
      "place": "모두랑",
      "Latitude": 37.5443769,
      "Longitude": 126.9680384,
      "kind": "분식",
      "address": "서울 용산구 청파로47길 37-16 1층",
      "number": "02-6339-8892"
    },
    {
      "place": "모미모미 숙대점",
      "Latitude": 37.5444695,
      "Longitude": 126.9692593,
      "kind": "일식",
      "address": "서울 용산구 청파로45길 24",
      "number": "010-3329-9789"
    },
    {
      "place": "몬스터플레이스",
      "Latitude": 37.5441271,
      "Longitude": 126.9667813,
      "kind": "간식",
      "address": "서울 용산구 청파로43길 70 지하1층",
      "number": "02-6402-5404"
    },
    {
      "place": "몽소",
      "Latitude": 37.5448787,
      "Longitude": 126.9693781,
      "kind": "간식",
      "address": "서울 용산구 청파로47길 20",
      "number": "02-706-7646"
    },
    {
      "place": "무모한초밥 숙명여대점",
      "Latitude": 37.5449039,
      "Longitude": 126.9676204,
      "kind": "일식",
      "address": "서울 용산구 청파로47길 52 명신프라자 1층 106호",
      "number": "02-2272-2187"
    },
    {
      "place": "미미펍",
      "Latitude": 37.5435642,
      "Longitude": 126.9709386,
      "kind": "술집",
      "address": "서울 용산구 청파로 270-1 1층",
      "number": ""
    },
    {
      "place": "미스신두마리치킨 숙대점",
      "Latitude": 37.5447166,
      "Longitude": 126.9695931,
      "kind": "치킨",
      "address": "서울 용산구 청파로47길 15",
      "number": ""
    },
    {
      "place": "미스터보쌈 공덕역점",
      "Latitude": 37.5464743,
      "Longitude": 126.9581687,
      "kind": "고기",
      "address": "서울 마포구 만리재로 74 신공덕래미안 2차 상가 1동 110호 (우)04187",
      "number": "02-711-5379"
    },
    {
      "place": "미스터카츠",
      "Latitude": 37.5446659,
      "Longitude": 126.9670873,
      "kind": "일식",
      "address": "서울 용산구 청파로47길 59 2층",
      "number": ""
    },
    {
      "place": "미스터피자 숙대용산점",
      "Latitude": 37.5445951,
      "Longitude": 126.9688796,
      "kind": "피자",
      "address": "서울 용산구 청파로45길 32 1층",
      "number": "02-702-0316"
    },
    {
      "place": "미쳐버린파닭",
      "Latitude": 37.5417437,
      "Longitude": 126.9694417,
      "kind": "치킨",
      "address": "서울 용산구 원효로97길 19",
      "number": "02-706-8482"
    },
    {
      "place": "미화네떡볶이",
      "Latitude": 37.5504062,
      "Longitude": 126.9637714,
      "kind": "분식",
      "address": "서울 용산구 효창원로 260 (우)04305",
      "number": "070-8951-4555"
    },
    {
      "place": "민정이네포차",
      "Latitude": 37.5488277,
      "Longitude": 126.9632761,
      "kind": "술집",
      "address": "서울 마포구 효창원로95길 2 (우)04184",
      "number": "02-715-8545"
    },
    {
      "place": "바다잔치",
      "Latitude": 37.5494366,
      "Longitude": 126.9696289,
      "kind": "술집",
      "address": "서울 용산구 청파로 335",
      "number": "02-712-3118"
    },
    {
      "place": "박리김밥",
      "Latitude": 37.5512163,
      "Longitude": 126.9631671,
      "kind": "분식",
      "address": "서울 용산구 서계동 266-33",
      "number": "02-717-6903"
    },
    {
      "place": "밥때",
      "Latitude": 37.5441516,
      "Longitude": 126.9718585,
      "kind": "분식",
      "address": "서울 용산구 한강대로87길 3",
      "number": "02-702-4632"
    },
    {
      "place": "백채김치찌개 숙대입구점",
      "Latitude": 37.5444991,
      "Longitude": 126.9691378,
      "kind": "한식",
      "address": "서울 용산구 청파로45길 26 1층",
      "number": "02-711-1205"
    },
    {
      "place": "버거인",
      "Latitude": 37.5436517,
      "Longitude": 126.9700163,
      "kind": "양식",
      "address": "서울 용산구 청파로43길 12 지하 1층",
      "number": "070-7573-7145"
    },
    {
      "place": "버스컵떡볶이 숙대점",
      "Latitude": 37.5452646,
      "Longitude": 126.9656939,
      "kind": "분식",
      "address": "서울 용산구 청파로47다길 4 1층",
      "number": "02-318-3231"
    },
    {
      "place": "베나레스 숙대점",
      "Latitude": 37.5445951,
      "Longitude": 126.9688796,
      "kind": "양식",
      "address": "서울 용산구 청파로45길 32 2층",
      "number": "02-714-9982"
    },
    {
      "place": "베스트프렌드",
      "Latitude": 37.5450652,
      "Longitude": 126.9661719,
      "kind": "분식",
      "address": "서울 용산구 청파로47길 78 지하 1층",
      "number": "02-715-3379"
    },
    {
      "place": "베이글팩토리",
      "Latitude": 37.5462639,
      "Longitude": 126.9673447,
      "kind": "간식",
      "address": "서울 용산구 청파로47나길 31 지상1층",
      "number": "070-8285-2861"
    },
    {
      "place": "베이징코리아",
      "Latitude": 37.5409903,
      "Longitude": 126.9622236,
      "kind": "중식",
      "address": "서울 용산구 효창원로 146 (우)04317",
      "number": "02-714-7576"
    },
    {
      "place": "별초밥스시",
      "Latitude": 37.5475144,
      "Longitude": 126.9586126,
      "kind": "일식",
      "address": "서울 마포구 만리재로 78-2 (우)04185",
      "number": "02-716-8885"
    },
    {
      "place": "보고콜",
      "Latitude": 37.5481215,
      "Longitude": 126.9586924,
      "kind": "양식",
      "address": "서울 마포구 만리재로 83-1 (우)04208",
      "number": "02-393-7772"
    },
    {
      "place": "보쌈집",
      "Latitude": 37.5475331,
      "Longitude": 126.9694763,
      "kind": "한식",
      "address": "서울 용산구 청파로61길 8",
      "number": "02-715-4776"
    },
    {
      "place": "보카",
      "Latitude": 37.5497732,
      "Longitude": 126.9637179,
      "kind": "양식",
      "address": "서울 마포구 효창원로98길 1-1 (우)04184",
      "number": "02-717-8281"
    },
    {
      "place": "본까쯔",
      "Latitude": 37.5415354,
      "Longitude": 126.9619139,
      "kind": "일식",
      "address": "서울 용산구 효창원로 151 (우)04319",
      "number": "02-718-8101"
    },
    {
      "place": "본죽&비빔밥cafe 숙대입구역점",
      "Latitude": 37.5446456,
      "Longitude": 126.9692026,
      "kind": "한식",
      "address": "서울 용산구 청파로47길 21",
      "number": "02-712-6282"
    },
    {
      "place": "봉구비어",
      "Latitude": 37.5414709,
      "Longitude": 126.9702952,
      "kind": "술집",
      "address": "서울 용산구 원효로 273-1 2층",
      "number": ""
    },
    {
      "place": "봉추찜닭",
      "Latitude": 37.544202,
      "Longitude": 126.9697869,
      "kind": "한식",
      "address": "서울 용산구 청파로45길 13",
      "number": "02-717-6981"
    },
    {
      "place": "부라더키친 용산점",
      "Latitude": 37.544927,
      "Longitude": 126.9693345,
      "kind": "일식",
      "address": "서울 용산구 청파로47길 20-2",
      "number": ""
    },
    {
      "place": "부암동치킨",
      "Latitude": 37.5445812,
      "Longitude": 126.9671959,
      "kind": "치킨",
      "address": "서울 용산구 청파로47가길 7-11",
      "number": "02-704-5309"
    },
    {
      "place": "분식카페 눈누난나",
      "Latitude": 37.5509168,
      "Longitude": 126.9635301,
      "kind": "분식",
      "address": "서울 용산구 효창원로 267 (우)04305",
      "number": ""
    },
    {
      "place": "분식카페 눈누난나",
      "Latitude": 37.5504062,
      "Longitude": 126.9637714,
      "kind": "분식",
      "address": "서울 용산구 효창원로 260 1층 (우)04305",
      "number": "070-8806-4344"
    },
    {
      "place": "뷔봉",
      "Latitude": 37.5399155,
      "Longitude": 126.9678962,
      "kind": "술집",
      "address": "서울 용산구 원효로83길 7-2 지하 1층",
      "number": "02-6238-9000"
    },
    {
      "place": "브라운돈까스 숙대점",
      "Latitude": 37.5448902,
      "Longitude": 126.9672913,
      "kind": "일식",
      "address": "서울 용산구 청파로47길 56 2층",
      "number": "02-716-5882"
    },
    {
      "place": "브롱스 숙대입구점",
      "Latitude": 37.5452737,
      "Longitude": 126.9702373,
      "kind": "술집",
      "address": "서울 용산구 청파로 287",
      "number": "02-6217-0557"
    },
    {
      "place": "비일",
      "Latitude": 37.5446006,
      "Longitude": 126.968583,
      "kind": "양식",
      "address": "서울 용산구 청파로45길 36 지하1층",
      "number": "02-711-7174"
    },
    {
      "place": "빈스키친",
      "Latitude": 37.5445607,
      "Longitude": 126.9693848,
      "kind": "한식",
      "address": "서울 용산구 청파로47길 17-3",
      "number": ""
    },
    {
      "place": "빨봉분식",
      "Latitude": 37.5448008,
      "Longitude": 126.9664415,
      "kind": "분식",
      "address": "서울 용산구 청파로47길 71 2층",
      "number": "02-701-5282"
    },
    {
      "place": "빼어날수족발",
      "Latitude": 37.5397738,
      "Longitude": 126.962632,
      "kind": "고기",
      "address": "서울 용산구 효창원로62길 16 1층 101호 (우)04317",
      "number": "02-2135-8149"
    },
    {
      "place": "빼어날수족발",
      "Latitude": 37.5397738,
      "Longitude": 126.962632,
      "kind": "고기",
      "address": "서울 용산구 효창원로62길 16 1층 101호 (우)04317",
      "number": "02-2135-8149"
    },
    {
      "place": "빼어날수족발",
      "Latitude": 37.5397738,
      "Longitude": 126.962632,
      "kind": "고기",
      "address": "서울 용산구 효창원로62길 16 1층 101호 (우)04317",
      "number": "02-2135-8149"
    },
    {
      "place": "뽀빠 숙대점",
      "Latitude": 37.5443335,
      "Longitude": 126.969982,
      "kind": "간식",
      "address": "서울 용산구 청파로45길 12",
      "number": "02-702-2130"
    },
    {
      "place": "사골곰탕전문기사식당",
      "Latitude": 37.5470043,
      "Longitude": 126.960952,
      "kind": "한식",
      "address": "서울 용산구 임정로 93-2 (우)04311",
      "number": "02-719-3842"
    },
    {
      "place": "사또양념치킨",
      "Latitude": 37.5492695,
      "Longitude": 126.9638245,
      "kind": "치킨",
      "address": "서울 용산구 효창원로94다길 30 (우)04306",
      "number": ""
    },
    {
      "place": "사또양념치킨 공덕1분점",
      "Latitude": 37.5480244,
      "Longitude": 126.959117,
      "kind": "치킨",
      "address": "서울 마포구 만리재로 86-1 (우)04185",
      "number": "02-713-6369"
    },
    {
      "place": "사이공마켓",
      "Latitude": 37.5451003,
      "Longitude": 126.9663797,
      "kind": "양식",
      "address": "서울 용산구 청파로47길 76",
      "number": ""
    },
    {
      "place": "사이꼬스시",
      "Latitude": 37.5453027,
      "Longitude": 126.9701577,
      "kind": "일식",
      "address": "서울 용산구 청파로 289 2층",
      "number": "02-711-2229"
    },
    {
      "place": "산골녹차냉면 본점",
      "Latitude": 37.5412472,
      "Longitude": 126.961833,
      "kind": "한식",
      "address": "서울 용산구 효창원로 147 1층 (우)04318",
      "number": "02-716-1988"
    },
    {
      "place": "산오징어랑낙지랑",
      "Latitude": 37.544124,
      "Longitude": 126.9575111,
      "kind": "술집",
      "address": "서울 마포구 임정로 47-1 (우)04190",
      "number": ""
    },
    {
      "place": "산촌신쭈꾸미 숙명여대점",
      "Latitude": 37.5442929,
      "Longitude": 126.9702926,
      "kind": "한식",
      "address": "서울 용산구 청파로45길 6",
      "number": ""
    },
    {
      "place": "삼일기사식당",
      "Latitude": 37.5457656,
      "Longitude": 126.970132,
      "kind": "한식",
      "address": "서울 용산구 청파로 293",
      "number": "02-713-9434"
    },
    {
      "place": "삼킬로미터",
      "Latitude": 37.544202,
      "Longitude": 126.9697869,
      "kind": "술집",
      "address": "서울 용산구 청파로45길 13 지하1층",
      "number": "02-713-4999"
    },
    {
      "place": "삼호식당",
      "Latitude": 37.5484223,
      "Longitude": 126.9702845,
      "kind": "한식",
      "address": "서울 용산구 청파로 320-3",
      "number": ""
    },
    {
      "place": "상록수",
      "Latitude": 37.5457609,
      "Longitude": 126.970002,
      "kind": "고기",
      "address": "서울 용산구 청파로51길 4 1층",
      "number": "02-704-8892"
    },
    {
      "place": "샐러드로우&트라타 숙대점",
      "Latitude": 37.5447067,
      "Longitude": 126.9699011,
      "kind": "간식",
      "address": "서울 용산구 청파로47길 9",
      "number": ""
    },
    {
      "place": "샐러디",
      "Latitude": 37.544784,
      "Longitude": 126.9665753,
      "kind": "간식",
      "address": "서울 용산구 청파로47길 67 1층",
      "number": "02-6465-2339"
    },
    {
      "place": "서가네식당",
      "Latitude": 37.5434993,
      "Longitude": 126.9624898,
      "kind": "한식",
      "address": "서울 용산구 효창원로 174 (우)04312",
      "number": "02-719-0077"
    },
    {
      "place": "서경족발",
      "Latitude": 37.5494127,
      "Longitude": 126.9634038,
      "kind": "고기",
      "address": "서울 마포구 효창원로 249 (우)04184",
      "number": "02-6398-8999"
    },
    {
      "place": "서울목해장국",
      "Latitude": 37.5456585,
      "Longitude": 126.9701471,
      "kind": "한식",
      "address": "서울 용산구 청파로 291-1",
      "number": ""
    },
    {
      "place": "설쌈냉면",
      "Latitude": 37.5443542,
      "Longitude": 126.9677106,
      "kind": "한식",
      "address": "서울 용산구 청파로47길 47-5",
      "number": "02-704-5788"
    },
    {
      "place": "설악냉면",
      "Latitude": 37.546902,
      "Longitude": 126.9608968,
      "kind": "한식",
      "address": "서울 용산구 임정로 93 (우)04311",
      "number": "02-3273-4886"
    },
    {
      "place": "세상사는이야기",
      "Latitude": 37.544124,
      "Longitude": 126.9575111,
      "kind": "술집",
      "address": "서울 마포구 임정로 47-1 (우)04190",
      "number": ""
    },
    {
      "place": "소문난김밥국수",
      "Latitude": 37.5473533,
      "Longitude": 126.9587325,
      "kind": "분식",
      "address": "서울 마포구 효창목길 3 1층 (우)04185",
      "number": "02-719-5858"
    },
    {
      "place": "소문난선지해장국",
      "Latitude": 37.5479581,
      "Longitude": 126.9590591,
      "kind": "한식",
      "address": "서울 마포구 만리재로 86 (우)04185",
      "number": ""
    },
    {
      "place": "소울",
      "Latitude": 37.5443581,
      "Longitude": 126.9718771,
      "kind": "술집",
      "address": "서울 용산구 한강대로 293",
      "number": "02-713-2742"
    },
    {
      "place": "손맛집",
      "Latitude": 37.5404961,
      "Longitude": 126.9681428,
      "kind": "한식",
      "address": "서울 용산구 원효로89길 13-3 1층",
      "number": "02-702-7677"
    },
    {
      "place": "솔로밥자랑",
      "Latitude": 37.5454353,
      "Longitude": 126.9698684,
      "kind": "한식",
      "address": "서울 용산구 청파로49길 6",
      "number": "02-336-1694"
    },
    {
      "place": "송강",
      "Latitude": 37.5456585,
      "Longitude": 126.9701471,
      "kind": "한식",
      "address": "서울 용산구 청파로 291-1",
      "number": ""
    },
    {
      "place": "수작",
      "Latitude": 37.5442873,
      "Longitude": 126.9704783,
      "kind": "일식",
      "address": "서울 용산구 청파로 277 2층",
      "number": "02-701-0559"
    },
    {
      "place": "숙대소반",
      "Latitude": 37.544058,
      "Longitude": 126.967331,
      "kind": "한식",
      "address": "서울 용산구 청파로43길 62 1층",
      "number": "02-716-7009"
    },
    {
      "place": "숙대앞맛있는샌드위치",
      "Latitude": 37.5450158,
      "Longitude": 126.9664069,
      "kind": "간식",
      "address": "서울 용산구 청파로47길 74 1층",
      "number": "02-6052-8920"
    },
    {
      "place": "순천기사식당",
      "Latitude": 37.5429333,
      "Longitude": 126.9624728,
      "kind": "한식",
      "address": "서울 용산구 효창원로 168 (우)04312",
      "number": "02-713-9990"
    },
    {
      "place": "술짝",
      "Latitude": 37.5440698,
      "Longitude": 126.9714647,
      "kind": "술집",
      "address": "서울 용산구 한강대로87길 9",
      "number": ""
    },
    {
      "place": "스쿨푸드",
      "Latitude": 37.5439139,
      "Longitude": 126.9703295,
      "kind": "분식",
      "address": "서울 용산구 청파로 273 1층",
      "number": "02-717-1508"
    },
    {
      "place": "스튜디오4BPM",
      "Latitude": 37.5442903,
      "Longitude": 126.968653,
      "kind": "술집",
      "address": "서울 용산구 청파로43가길 28 1층",
      "number": ""
    },
    {
      "place": "스핑크스",
      "Latitude": 37.5473295,
      "Longitude": 126.9587894,
      "kind": "술집",
      "address": "서울 마포구 효창목길 5 (우)04185",
      "number": "02-714-4282"
    },
    {
      "place": "시골밥상",
      "Latitude": 37.5479967,
      "Longitude": 126.9585368,
      "kind": "한식",
      "address": "서울 마포구 만리재로 83 지하1층 (우)04208",
      "number": ""
    },
    {
      "place": "신룽푸마라탕",
      "Latitude": 37.5446167,
      "Longitude": 126.9669193,
      "kind": "중식",
      "address": "서울 용산구 청파로47가길 5",
      "number": ""
    },
    {
      "place": "신마라명가 숙대직영점",
      "Latitude": 37.545251,
      "Longitude": 126.9668133,
      "kind": "중식",
      "address": "서울 용산구 청파로47나길 7 1층 102호",
      "number": ""
    },
    {
      "place": "신머이",
      "Latitude": 37.5445951,
      "Longitude": 126.9688796,
      "kind": "아시아",
      "address": "서울 용산구 청파로45길 32",
      "number": "02-711-6175"
    },
    {
      "place": "신불떡볶이",
      "Latitude": 37.5444795,
      "Longitude": 126.9683437,
      "kind": "간식",
      "address": "서울 용산구 청파로45길 39 1층",
      "number": "0504-1400-5217"
    },
    {
      "place": "신성각",
      "Latitude": 37.5446853,
      "Longitude": 126.9577115,
      "kind": "중식",
      "address": "서울 마포구 임정로 55-1 (우)04190",
      "number": "02-716-1210"
    },
    {
      "place": "신성자",
      "Latitude": 37.5446853,
      "Longitude": 126.9577115,
      "kind": "중식",
      "address": "서울 마포구 임정로 55-1 1층 (우)04190",
      "number": "02-716-1210"
    },
    {
      "place": "신청파찹쌀순대",
      "Latitude": 37.5463076,
      "Longitude": 126.9700793,
      "kind": "한식",
      "address": "서울 용산구 청파로 299-1",
      "number": "02-701-8883"
    },
    {
      "place": "쌍대포 본점",
      "Latitude": 37.5455299,
      "Longitude": 126.9700629,
      "kind": "고기",
      "address": "서울 용산구 청파로 291",
      "number": "02-707-1380"
    },
    {
      "place": "써브웨이 숙명여대점",
      "Latitude": 37.5447951,
      "Longitude": 126.968156,
      "kind": "간식",
      "address": "서울 용산구 청파로47길 42",
      "number": "02-702-2454"
    },
    {
      "place": "쎄니에",
      "Latitude": 37.5399339,
      "Longitude": 126.967638,
      "kind": "양식",
      "address": "서울 용산구 원효로83길 7-6 1층",
      "number": "010-6438-7024"
    },
    {
      "place": "알촌",
      "Latitude": 37.5439545,
      "Longitude": 126.9690921,
      "kind": "한식",
      "address": "서울 용산구 청파로43가길 14 1층",
      "number": ""
    },
    {
      "place": "야소반 공덕점",
      "Latitude": 37.5470727,
      "Longitude": 126.9607338,
      "kind": "한식",
      "address": "서울 마포구 효창목길 30 (우)04186",
      "number": "02-713-7890"
    },
    {
      "place": "야인촌",
      "Latitude": 37.5493622,
      "Longitude": 126.9694748,
      "kind": "한식",
      "address": "서울 용산구 청파로71길 8",
      "number": "02-717-9008"
    },
    {
      "place": "양문",
      "Latitude": 37.5430751,
      "Longitude": 126.9718834,
      "kind": "고기",
      "address": "서울 용산구 한강대로81길 8 1층",
      "number": "02-719-1994"
    },
    {
      "place": "양평매운탕",
      "Latitude": 37.5489697,
      "Longitude": 126.9697168,
      "kind": "한식",
      "address": "서울 용산구 청파로 329",
      "number": "02-712-6657"
    },
    {
      "place": "어바웃샤브",
      "Latitude": 37.5442931,
      "Longitude": 126.9690727,
      "kind": "한식",
      "address": "서울 용산구 청파로43나길 15 삼일빌딩1층",
      "number": "02-711-5792"
    },
    {
      "place": "에그맛있다",
      "Latitude": 37.5444795,
      "Longitude": 126.9683437,
      "kind": "간식",
      "address": "서울 용산구 청파로45길 39",
      "number": "02-6951-0344"
    },
    {
      "place": "엠브이샤브샤브",
      "Latitude": 37.5396723,
      "Longitude": 126.9644122,
      "kind": "한식",
      "address": "서울 용산구 백범로79길 20 (우)04316",
      "number": ""
    },
    {
      "place": "역전할머니맥주 숙대입구점",
      "Latitude": 37.5443407,
      "Longitude": 126.9717472,
      "kind": "술집",
      "address": "서울 용산구 한강대로87길 4 1층",
      "number": ""
    },
    {
      "place": "열린마당",
      "Latitude": 37.5486878,
      "Longitude": 126.9632474,
      "kind": "술집",
      "address": "서울 마포구 효창원로95길 3 (우)04185",
      "number": "02-715-4662"
    },
    {
      "place": "엽기떡볶이",
      "Latitude": 37.5441191,
      "Longitude": 126.970192,
      "kind": "분식",
      "address": "서울 용산구 청파로45길 5 1층",
      "number": "02-3272-5252"
    },
    {
      "place": "옛날에해장국",
      "Latitude": 37.5506833,
      "Longitude": 126.9638309,
      "kind": "한식",
      "address": "서울 용산구 효창원로 264 (우)04305",
      "number": "02-703-7401"
    },
    {
      "place": "오며가며",
      "Latitude": 37.5444795,
      "Longitude": 126.9683437,
      "kind": "한식",
      "address": "서울 용산구 청파로45길 39",
      "number": "02-712-7628"
    },
    {
      "place": "오복이네",
      "Latitude": 37.5492865,
      "Longitude": 126.9696739,
      "kind": "분식",
      "address": "서울 용산구 청파로 333",
      "number": ""
    },
    {
      "place": "오봉도시락",
      "Latitude": 37.543765,
      "Longitude": 126.9705104,
      "kind": "한식",
      "address": "서울 용산구 청파로 271",
      "number": "02-6429-5051"
    },
    {
      "place": "오빠달걀빵",
      "Latitude": 37.5446167,
      "Longitude": 126.9669193,
      "kind": "간식",
      "address": "서울 용산구 청파로47가길 5",
      "number": "02-706-7180"
    },
    {
      "place": "와우신내떡",
      "Latitude": 37.5443853,
      "Longitude": 126.9699304,
      "kind": "분식",
      "address": "서울 용산구 청파로45길 12-1",
      "number": "02-704-8485"
    },
    {
      "place": "왈가닥",
      "Latitude": 37.5492129,
      "Longitude": 126.969194,
      "kind": "간식",
      "address": "서울 용산구 청파로47나길 108 1층",
      "number": "02-6081-9993"
    },
    {
      "place": "왕뼈감자탕 효창점",
      "Latitude": 37.541928,
      "Longitude": 126.9622943,
      "kind": "한식",
      "address": "서울 용산구 효창원로 156 (우)04312",
      "number": "02-712-7780"
    },
    {
      "place": "용대박",
      "Latitude": 37.5399674,
      "Longitude": 126.9675481,
      "kind": "한식",
      "address": "서울 용산구 원효로83길 13-5 1층",
      "number": "02-718-8853"
    },
    {
      "place": "우돈",
      "Latitude": 37.5416687,
      "Longitude": 126.9702472,
      "kind": "고기",
      "address": "서울 용산구 원효로97길 4",
      "number": "02-797-5342"
    },
    {
      "place": "우리두리",
      "Latitude": 37.5492708,
      "Longitude": 126.9633537,
      "kind": "한식",
      "address": "서울 마포구 효창원로 247 (우)04184",
      "number": "02-703-9074"
    },
    {
      "place": "우와떡볶이",
      "Latitude": 37.5496596,
      "Longitude": 126.9634037,
      "kind": "분식",
      "address": "서울 마포구 효창원로 251-1 (우)04183",
      "number": ""
    },
    {
      "place": "울엄마식당",
      "Latitude": 37.5487153,
      "Longitude": 126.9630977,
      "kind": "한식",
      "address": "서울 마포구 효창원로95길 5 (우)04185",
      "number": ""
    },
    {
      "place": "원조마포껍데기집",
      "Latitude": 37.5474211,
      "Longitude": 126.9591718,
      "kind": "고기",
      "address": "서울 마포구 효창목길 9 (우)04185",
      "number": "02-712-5575"
    },
    {
      "place": "원조마포껍데기집",
      "Latitude": 37.5474211,
      "Longitude": 126.9591718,
      "kind": "고기",
      "address": "서울 마포구 효창목길 9 (우)04185",
      "number": "02-712-5575"
    },
    {
      "place": "유미퀴진 숙대본점",
      "Latitude": 37.5445951,
      "Longitude": 126.9688796,
      "kind": "양식",
      "address": "서울 용산구 청파로45길 32 1층",
      "number": "02-712-3211"
    },
    {
      "place": "육쌈냉면",
      "Latitude": 37.5445339,
      "Longitude": 126.9669341,
      "kind": "한식",
      "address": "서울 용산구 청파로47가길 7",
      "number": ""
    },
    {
      "place": "은지네",
      "Latitude": 37.5480708,
      "Longitude": 126.9605049,
      "kind": "한식",
      "address": "서울 마포구 효창목5길 7 (우)04185",
      "number": "010-6407-7910"
    },
    {
      "place": "음식미담",
      "Latitude": 37.5450158,
      "Longitude": 126.9664069,
      "kind": "한식",
      "address": "서울 용산구 청파로47길 74",
      "number": "02-701-9120"
    },
    {
      "place": "의식주",
      "Latitude": 37.5496596,
      "Longitude": 126.9634037,
      "kind": "술집",
      "address": "서울 마포구 효창원로 251-1 1층 (우)04183",
      "number": "02-6014-2050"
    },
    {
      "place": "이리오너라",
      "Latitude": 37.5446456,
      "Longitude": 126.9692026,
      "kind": "술집",
      "address": "서울 용산구 청파로47길 21",
      "number": "02-714-1254"
    },
    {
      "place": "이삭토스트 숙명여대점",
      "Latitude": 37.5448895,
      "Longitude": 126.9672121,
      "kind": "간식",
      "address": "서울 용산구 청파로47길 58",
      "number": "02-706-2248"
    },
    {
      "place": "이심점심",
      "Latitude": 37.5495475,
      "Longitude": 126.9693252,
      "kind": "한식",
      "address": "서울 용산구 청파로 335-8",
      "number": "02-711-9420"
    },
    {
      "place": "이웃집영준이",
      "Latitude": 37.5439231,
      "Longitude": 126.9714848,
      "kind": "술집",
      "address": "서울 용산구 한강대로87길 7-6",
      "number": ""
    },
    {
      "place": "이조본가",
      "Latitude": 37.5493336,
      "Longitude": 126.9676396,
      "kind": "한식",
      "address": "서울 용산구 청파로71길 45",
      "number": ""
    },
    {
      "place": "이태리면가게",
      "Latitude": 37.5444883,
      "Longitude": 126.9681048,
      "kind": "양식",
      "address": "서울 용산구 청파로47길 39",
      "number": "02-702-2925"
    },
    {
      "place": "인생닭강정",
      "Latitude": 37.5441255,
      "Longitude": 126.9715533,
      "kind": "치킨",
      "address": "서울 용산구 한강대로87길 7-1",
      "number": "02-717-9980"
    },
    {
      "place": "일번지기사식당",
      "Latitude": 37.5425642,
      "Longitude": 126.9626092,
      "kind": "한식",
      "address": "서울 용산구 효창원로 164 (우)04312",
      "number": "02-719-5415"
    },
    {
      "place": "일신기사식당",
      "Latitude": 37.5466249,
      "Longitude": 126.9636042,
      "kind": "한식",
      "address": "서울 용산구 효창원로 218 1층 (우)04306",
      "number": "02-713-8423"
    },
    {
      "place": "작은도쿄",
      "Latitude": 37.543765,
      "Longitude": 126.9705104,
      "kind": "일식",
      "address": "서울 용산구 청파로 271 1층",
      "number": "0507-1349-4450"
    },
    {
      "place": "장재근일식",
      "Latitude": 37.5405279,
      "Longitude": 126.9691008,
      "kind": "일식",
      "address": "서울 용산구 원효로 257",
      "number": "02-716-9888"
    },
    {
      "place": "장재근초밥",
      "Latitude": 37.5442062,
      "Longitude": 126.9669635,
      "kind": "일식",
      "address": "서울 용산구 청파로47가길 9-4",
      "number": "02-716-9888"
    },
    {
      "place": "전주산수비빔밥",
      "Latitude": 37.540691,
      "Longitude": 126.9680666,
      "kind": "한식",
      "address": "서울 용산구 원효로89길 19",
      "number": "02-782-0036"
    },
    {
      "place": "정",
      "Latitude": 37.5450079,
      "Longitude": 126.9670384,
      "kind": "중식",
      "address": "서울 용산구 청파로47나길 4",
      "number": "02-719-8719"
    },
    {
      "place": "제니스식당",
      "Latitude": 37.544341,
      "Longitude": 126.9704368,
      "kind": "한식",
      "address": "서울 용산구 청파로 277-1",
      "number": "02-719-3176"
    },
    {
      "place": "제주딱새우회 용산점",
      "Latitude": 37.544927,
      "Longitude": 126.9693345,
      "kind": "한식",
      "address": "서울 용산구 청파로47길 20-2 1층",
      "number": "02-704-7277"
    },
    {
      "place": "제주집",
      "Latitude": 37.5496551,
      "Longitude": 126.9693724,
      "kind": "한식",
      "address": "서울 용산구 청파로 335-6",
      "number": "02-716-0407"
    },
    {
      "place": "족발의장인족장 청파점",
      "Latitude": 37.5503484,
      "Longitude": 126.963547,
      "kind": "고기",
      "address": "서울 용산구 효창원로 259-1 (우)04305",
      "number": "02-711-0393"
    },
    {
      "place": "종로김밥",
      "Latitude": 37.5448664,
      "Longitude": 126.9660129,
      "kind": "분식",
      "address": "서울 용산구 청파로47길 79",
      "number": "02-715-3281"
    },
    {
      "place": "종로빈대떡",
      "Latitude": 37.5504963,
      "Longitude": 126.9665451,
      "kind": "한식",
      "address": "서울 용산구 청파로71가길 48",
      "number": ""
    },
    {
      "place": "좋은가비어",
      "Latitude": 37.5485092,
      "Longitude": 126.9635362,
      "kind": "술집",
      "address": "서울 용산구 효창원로 240-1 (우)04306",
      "number": "02-711-6006"
    },
    {
      "place": "즐겁소",
      "Latitude": 37.5416905,
      "Longitude": 126.9624413,
      "kind": "고기",
      "address": "서울 용산구 효창원로70길 5 신화빌딩 1층 (우)04312",
      "number": "02-719-9010"
    },
    {
      "place": "지랄닭발 숙대점",
      "Latitude": 37.5491622,
      "Longitude": 126.9694753,
      "kind": "한식",
      "address": "서울 용산구 청파로71길 5",
      "number": "02-711-9928"
    },
    {
      "place": "지지고 숙명여대점",
      "Latitude": 37.5448936,
      "Longitude": 126.9670536,
      "kind": "한식",
      "address": "서울 용산구 청파로47길 62-1",
      "number": "02-703-7779"
    },
    {
      "place": "진함흥면옥",
      "Latitude": 37.5470727,
      "Longitude": 126.9607338,
      "kind": "한식",
      "address": "서울 마포구 효창목길 30 인재빌딩 (우)04186",
      "number": "02-703-0930"
    },
    {
      "place": "짱맛있어",
      "Latitude": 37.5496399,
      "Longitude": 126.9684536,
      "kind": "분식",
      "address": "서울 용산구 청파로71길 26-3 지하1층",
      "number": ""
    },
    {
      "place": "쭝일아찌5단계 빨강떡볶이",
      "Latitude": 37.5435254,
      "Longitude": 126.9689656,
      "kind": "분식",
      "address": "서울 용산구 청파로43길 29",
      "number": "02-703-3449"
    },
    {
      "place": "착한피자 공덕점",
      "Latitude": 37.5475688,
      "Longitude": 126.9596676,
      "kind": "양식",
      "address": "서울 마포구 효창목길 16 1층 (우)04186",
      "number": "1599-9289"
    },
    {
      "place": "참이맛감자탕",
      "Latitude": 37.5404147,
      "Longitude": 126.9688263,
      "kind": "한식",
      "address": "서울 용산구 원효로89길 4",
      "number": "02-711-4587"
    },
    {
      "place": "천호용궁알탕",
      "Latitude": 37.5494583,
      "Longitude": 126.9631508,
      "kind": "한식",
      "address": "서울 마포구 효창원로97길 8 (우)04183",
      "number": "070-7285-2144"
    },
    {
      "place": "청년다방 숙대입구점",
      "Latitude": 37.5443226,
      "Longitude": 126.9716241,
      "kind": "분식",
      "address": "서울 용산구 한강대로87길 6",
      "number": "02-714-5977"
    },
    {
      "place": "청년피자 공덕점",
      "Latitude": 37.5481215,
      "Longitude": 126.9586924,
      "kind": "양식",
      "address": "서울 마포구 만리재로 83-1 1층 (우)04208",
      "number": "02-717-9109"
    },
    {
      "place": "청춘식당",
      "Latitude": 37.5453027,
      "Longitude": 126.9701577,
      "kind": "고기",
      "address": "서울 용산구 청파로 289",
      "number": "02-714-0668"
    },
    {
      "place": "청파닭꼬치",
      "Latitude": 37.5446077,
      "Longitude": 126.9684653,
      "kind": "간식",
      "address": "서울 용산구 청파로47길 35 1층",
      "number": "0507-1324-4759"
    },
    {
      "place": "청파맨션",
      "Latitude": 37.5456412,
      "Longitude": 126.9671259,
      "kind": "술집",
      "address": "서울 용산구 청파로47나길 20",
      "number": "02-706-9093"
    },
    {
      "place": "청파생고기",
      "Latitude": 37.5495257,
      "Longitude": 126.9696254,
      "kind": "고기",
      "address": "서울 용산구 청파로 335-1",
      "number": "02-715-6979"
    },
    {
      "place": "청호손칼국수",
      "Latitude": 37.5407943,
      "Longitude": 126.9621709,
      "kind": "한식",
      "address": "서울 용산구 효창원로 144 (우)04317",
      "number": "02-718-9192"
    },
    {
      "place": "첸중화요리",
      "Latitude": 37.5492708,
      "Longitude": 126.9633537,
      "kind": "중식",
      "address": "서울 마포구 효창원로 247 (우)04184",
      "number": ""
    },
    {
      "place": "초원양꼬치",
      "Latitude": 37.5405279,
      "Longitude": 126.9691008,
      "kind": "고기",
      "address": "서울 용산구 원효로 257 2층",
      "number": "02-702-6009"
    },
    {
      "place": "츄르츄르",
      "Latitude": 37.5435162,
      "Longitude": 126.9699763,
      "kind": "일식",
      "address": "서울 용산구 청파로43길 11 1층",
      "number": "02-707-0410"
    },
    {
      "place": "카니발피자 숙명여대점",
      "Latitude": 37.5448221,
      "Longitude": 126.9684702,
      "kind": "피자",
      "address": "서울 용산구 청파로47길 34",
      "number": ""
    },
    {
      "place": "칸 샌드위치&도너츠",
      "Latitude": 37.5436896,
      "Longitude": 126.9699162,
      "kind": "간식",
      "address": "서울 용산구 청파로43길 14",
      "number": ""
    },
    {
      "place": "코메리카",
      "Latitude": 37.5426843,
      "Longitude": 126.9714995,
      "kind": "술집",
      "address": "서울 용산구 한강대로81길 20 지하 1층",
      "number": "02-501-1860"
    },
    {
      "place": "퀴즈노스서브 숙대입구점",
      "Latitude": 37.5442499,
      "Longitude": 126.9709382,
      "kind": "간식",
      "address": "서울 용산구 청파로 276 1층",
      "number": "02-704-0109"
    },
    {
      "place": "크라운호프",
      "Latitude": 37.5441516,
      "Longitude": 126.9718585,
      "kind": "술집",
      "address": "서울 용산구 한강대로87길 3",
      "number": ""
    },
    {
      "place": "큰손할매순대국",
      "Latitude": 37.5406563,
      "Longitude": 126.9692541,
      "kind": "한식",
      "address": "서울 용산구 원효로 259",
      "number": "02-717-6218"
    },
    {
      "place": "키움참치",
      "Latitude": 37.5440204,
      "Longitude": 126.9704537,
      "kind": "일식",
      "address": "서울 용산구 청파로 275 2층",
      "number": "02-714-7377"
    },
    {
      "place": "키친엑스 용산점",
      "Latitude": 37.5476343,
      "Longitude": 126.97147,
      "kind": "한식",
      "address": "서울 용산구 한강대로 329 지하1층",
      "number": "02-6263-9570"
    },
    {
      "place": "타코비",
      "Latitude": 37.5444795,
      "Longitude": 126.9683437,
      "kind": "간식",
      "address": "서울 용산구 청파로45길 39",
      "number": ""
    },
    {
      "place": "탕화쿵푸 숙대점",
      "Latitude": 37.5450652,
      "Longitude": 126.9661719,
      "kind": "중식",
      "address": "서울 용산구 청파로47길 78 2층 2호",
      "number": "02-6015-7888"
    },
    {
      "place": "태리로제떡볶이&닭강정",
      "Latitude": 37.5475176,
      "Longitude": 126.9595835,
      "kind": "분식",
      "address": "서울 마포구 효창목길 14 1층 (우)04186",
      "number": "0503-750-9205"
    },
    {
      "place": "태성각",
      "Latitude": 37.5404488,
      "Longitude": 126.9680892,
      "kind": "중식",
      "address": "서울 용산구 원효로89길 13-5",
      "number": "02-713-5511"
    },
    {
      "place": "털보네떡꼬치",
      "Latitude": 37.5442008,
      "Longitude": 126.9719246,
      "kind": "분식",
      "address": "서울 용산구 한강대로 291-1",
      "number": "02-704-8425"
    },
    {
      "place": "통통손만두",
      "Latitude": 37.5504062,
      "Longitude": 126.9637714,
      "kind": "분식",
      "address": "서울 용산구 효창원로 260 (우)04305",
      "number": "02-702-0488"
    },
    {
      "place": "투다리 효창점",
      "Latitude": 37.5407943,
      "Longitude": 126.9621709,
      "kind": "술집",
      "address": "서울 용산구 효창원로 144 (우)04317",
      "number": "02-718-9021"
    },
    {
      "place": "티키타카109",
      "Latitude": 37.5442499,
      "Longitude": 126.9709382,
      "kind": "일식",
      "address": "서울 용산구 청파로 276",
      "number": "02-704-0109"
    },
    {
      "place": "파스타입니다",
      "Latitude": 37.5441191,
      "Longitude": 126.970192,
      "kind": "양식",
      "address": "서울 용산구 청파로45길 5",
      "number": ""
    },
    {
      "place": "파와결혼한2마리파닭",
      "Latitude": 37.5483998,
      "Longitude": 126.9635864,
      "kind": "치킨",
      "address": "서울 용산구 효창원로94길 3 (우)04306",
      "number": "050-4457-4008"
    },
    {
      "place": "페리카나 공덕동점",
      "Latitude": 37.5473249,
      "Longitude": 126.9605243,
      "kind": "치킨",
      "address": "서울 마포구 효창목4길 25 1층 (우)04186",
      "number": "02-707-1371"
    },
    {
      "place": "포36거리",
      "Latitude": 37.5448501,
      "Longitude": 126.966098,
      "kind": "아시아",
      "address": "서울 용산구 청파로47길 77 2층",
      "number": "02-701-4328"
    },
    {
      "place": "포대포",
      "Latitude": 37.5491212,
      "Longitude": 126.9701459,
      "kind": "고기",
      "address": "서울 용산구 청파로 332",
      "number": "02-3272-9629"
    },
    {
      "place": "포라임 숙대점",
      "Latitude": 37.5451036,
      "Longitude": 126.9659315,
      "kind": "아시아",
      "address": "서울 용산구 청파로47길 82 2층",
      "number": "02-6418-0079"
    },
    {
      "place": "플랜씨",
      "Latitude": 37.5492791,
      "Longitude": 126.9690301,
      "kind": "양식",
      "address": "서울 용산구 청파로71길 13 1층",
      "number": "0507-1449-9787"
    },
    {
      "place": "피자마루 용산효창공원점",
      "Latitude": 37.53994,
      "Longitude": 126.9618591,
      "kind": "양식",
      "address": "서울 용산구 효창원로 136 (우)04317",
      "number": "02-703-1082"
    },
    {
      "place": "피자보이시나 숙대입구점",
      "Latitude": 37.5452865,
      "Longitude": 126.9670629,
      "kind": "피자",
      "address": "서울 용산구 청파로47나길 10 2층",
      "number": "02-711-9727"
    },
    {
      "place": "피자비토랩 공덕점",
      "Latitude": 37.5464743,
      "Longitude": 126.9581687,
      "kind": "양식",
      "address": "서울 마포구 만리재로 74 상가 106호 (우)04187",
      "number": "02-706-3082"
    },
    {
      "place": "피자알볼로",
      "Latitude": 37.5406991,
      "Longitude": 126.9693044,
      "kind": "양식",
      "address": "서울 용산구 원효로 259-1 1층",
      "number": "02-713-8495"
    },
    {
      "place": "피자하우스",
      "Latitude": 37.5495276,
      "Longitude": 126.9692134,
      "kind": "피자",
      "address": "서울 용산구 청파로71길 14",
      "number": "02-701-7979"
    },
    {
      "place": "핀벨",
      "Latitude": 37.5443803,
      "Longitude": 126.9688475,
      "kind": "간식",
      "address": "서울 용산구 청파로45길 31 1층",
      "number": "010-5893-3292"
    },
    {
      "place": "하노이별",
      "Latitude": 37.5426843,
      "Longitude": 126.9714995,
      "kind": "아시아",
      "address": "서울 용산구 한강대로81길 20",
      "number": "02-704-7470"
    },
    {
      "place": "하림치킨",
      "Latitude": 37.5492791,
      "Longitude": 126.9690301,
      "kind": "치킨",
      "address": "서울 용산구 청파로71길 13",
      "number": "02-711-4448"
    },
    {
      "place": "하얀집",
      "Latitude": 37.5443967,
      "Longitude": 126.9697956,
      "kind": "한식",
      "address": "서울 용산구 청파로45길 14-1",
      "number": ""
    },
    {
      "place": "하오연",
      "Latitude": 37.5415749,
      "Longitude": 126.9699317,
      "kind": "중식",
      "address": "서울 용산구 원효로97길 9",
      "number": "02-713-4607"
    },
    {
      "place": "한나네김밥",
      "Latitude": 37.5461597,
      "Longitude": 126.9698539,
      "kind": "분식",
      "address": "서울 용산구 청파로53길 6",
      "number": "02-713-7192"
    },
    {
      "place": "한남불닭",
      "Latitude": 37.5442219,
      "Longitude": 126.9696893,
      "kind": "한식",
      "address": "서울 용산구 청파로45길 15",
      "number": "02-706-9880"
    },
    {
      "place": "한솥도시락 남영사거리점",
      "Latitude": 37.5449511,
      "Longitude": 126.9724054,
      "kind": "한식",
      "address": "서울 용산구 두텁바위로 2",
      "number": "02-796-8733"
    },
    {
      "place": "한입소반",
      "Latitude": 37.5440624,
      "Longitude": 126.9703082,
      "kind": "분식",
      "address": "서울 용산구 청파로45길 3 1층",
      "number": "02-701-4417"
    },
    {
      "place": "함지박",
      "Latitude": 37.542294,
      "Longitude": 126.9687981,
      "kind": "분식",
      "address": "서울 용산구 원효로97길 40",
      "number": "02-712-9582"
    },
    {
      "place": "해뜰날",
      "Latitude": 37.5475688,
      "Longitude": 126.9596676,
      "kind": "한식",
      "address": "서울 마포구 효창목길 16 (우)04186",
      "number": ""
    },
    {
      "place": "해바라기정육식당 청파점",
      "Latitude": 37.5453027,
      "Longitude": 126.9701577,
      "kind": "고기",
      "address": "서울 용산구 청파로 289 1층",
      "number": "02-701-3012"
    },
    {
      "place": "해피밥상",
      "Latitude": 37.5473152,
      "Longitude": 126.9589039,
      "kind": "술집",
      "address": "서울 마포구 효창목길 5-1 (우)04185",
      "number": ""
    },
    {
      "place": "행복한아구찜 숙대점",
      "Latitude": 37.5493843,
      "Longitude": 126.9636599,
      "kind": "한식",
      "address": "서울 마포구 효창원로 250 (우)04184",
      "number": ""
    },
    {
      "place": "헤븐",
      "Latitude": 37.5443722,
      "Longitude": 126.9687412,
      "kind": "술집",
      "address": "서울 용산구 청파로45길 33",
      "number": ""
    },
    {
      "place": "호식이두마리치킨 공덕점",
      "Latitude": 37.5464743,
      "Longitude": 126.9581687,
      "kind": "치킨",
      "address": "서울 마포구 만리재로 74 상가2동 1층 113호 (우)04187",
      "number": "02-712-8788"
    },
    {
      "place": "홍곱창",
      "Latitude": 37.544358,
      "Longitude": 126.9683499,
      "kind": "고기",
      "address": "서울 용산구 청파로43가길 31",
      "number": "02-707-0092"
    },
    {
      "place": "홍짜장 숙대점",
      "Latitude": 37.5449039,
      "Longitude": 126.9676204,
      "kind": "중식",
      "address": "서울 용산구 청파로47길 52 103호",
      "number": "02-703-5969"
    },
    {
      "place": "홍콩반점0410 숙대입구역점",
      "Latitude": 37.5443853,
      "Longitude": 126.9699304,
      "kind": "중식",
      "address": "서울 용산구 청파로45길 12-1 1층",
      "number": "02-706-8369"
    },
    {
      "place": "화원기사식당",
      "Latitude": 37.5440255,
      "Longitude": 126.9573767,
      "kind": "한식",
      "address": "서울 용산구 임정로 47 (우)04190",
      "number": "02-712-7216"
    },
    {
      "place": "효가옥",
      "Latitude": 37.5439234,
      "Longitude": 126.9610276,
      "kind": "한식",
      "address": "서울 용산구 효창원로 177-15 1층 (우)04311",
      "number": ""
    },
    {
      "place": "효창동돈까스",
      "Latitude": 37.5418525,
      "Longitude": 126.9649931,
      "kind": "일식",
      "address": "서울 용산구 백범로79길 70-3 (우)04314",
      "number": ""
    },
    {
      "place": "훅트",
      "Latitude": 37.5447994,
      "Longitude": 126.9577711,
      "kind": "양식",
      "address": "서울 마포구 임정로 57 (우)04190",
      "number": "070-7717-0976"
    },
    {
      "place": "희희락락",
      "Latitude": 37.5484879,
      "Longitude": 126.9632638,
      "kind": "간식",
      "address": "서울 용산구 효창원로93길 2 1층 (우)04311",
      "number": ""
    },
    {
      "place": "BBQ 만리점",
      "Latitude": 37.5492708,
      "Longitude": 126.9633537,
      "kind": "치킨",
      "address": "서울 마포구 효창원로 247 (우)04184",
      "number": "02-715-6112"
    },
    {
      "place": "KFC 숙대입구점",
      "Latitude": 37.5447285,
      "Longitude": 126.9716774,
      "kind": "치킨",
      "address": "서울 용산구 한강대로 297",
      "number": "02-792-2060"
    }
  ]